[
  {
    "id": "prov_bright_smile",
    "name": "Bright Smile Dental",
    "phone": "+41762779830",
    "address": "Bahnhofstrasse 10, 8001 Zürich",
    "rating": 4.7,
    "lat": 47.3690,
    "lng": 8.5390,
    "services": ["dentist", "dental cleaning", "teeth whitening", "dental checkup"]
  },

  {
    "id": "prov_seefeld_familie",
    "name": "Seefeld Familienmedizin",
    "phone": "+15551000003",
    "address": "Seefeldstrasse 45, 8008 Zürich",
    "rating": 4.5,
    "lat": 47.3580,
    "lng": 8.5530,
    "services": ["family doctor", "general checkup", "physical exam", "vaccination"]
  },
  {
    "id": "prov_zurich_primary",
    "name": "Zürich Primary Care",
    "phone": "+15551000004",
    "address": "Limmatquai 78, 8001 Zürich",
    "rating": 4.8,
    "lat": 47.3730,
    "lng": 8.5445,
    "services": ["family doctor", "general checkup", "physical exam", "blood work"]
  },
  {
    "id": "prov_bellevue_augen",
    "name": "Bellevue Augenpraxis",
    "phone": "+15551000005",
    "address": "Theaterstrasse 12, 8001 Zürich",
    "rating": 4.6,
    "lat": 47.3667,
    "lng": 8.5450,
    "services": ["optometrist", "eye exam", "contact lenses", "glasses"]
  },
  {
    "id": "prov_enge_derma",
    "name": "Enge Dermatologie",
    "phone": "+15551000006",
    "address": "Bederstrasse 33, 8002 Zürich",
    "rating": 4.2,
    "lat": 47.3610,
    "lng": 8.5310,
    "services": ["dermatologist", "skin checkup", "acne treatment", "mole removal"]
  },
  {
    "id": "prov_wiedikon_chiro",
    "name": "Wiedikon Chiropraktik",
    "phone": "+15551000007",
    "address": "Birmensdorferstrasse 150, 8003 Zürich",
    "rating": 4.4,
    "lat": 47.3710,
    "lng": 8.5190,
    "services": ["chiropractor", "back pain", "spinal adjustment", "physical therapy"]
  },
  {
    "id": "prov_oerlikon_wellness",
    "name": "Oerlikon Wellness Zentrum",
    "phone": "+15551000008",
    "address": "Schaffhauserstrasse 200, 8057 Zürich",
    "rating": 4.9,
    "lat": 47.4085,
    "lng": 8.5445,
    "services": ["family doctor", "general checkup", "wellness visit", "mental health"]
  },
  {
    "id": "prov_zurichberg_ortho",
    "name": "Zürichberg Orthopädie",
    "phone": "+15551000010",
    "address": "Rämistrasse 66, 8001 Zürich",
    "rating": 4.5,
    "lat": 47.3750,
    "lng": 8.5490,
    "services": ["orthopedist", "joint pain", "sports medicine", "physical therapy"]
  },
  {
    "id": "prov_wollishofen_hno",
    "name": "Wollishofen HNO-Spezialisten",
    "phone": "+15551000011",
    "address": "Seestrasse 110, 8002 Zürich",
    "rating": 4.3,
    "lat": 47.3440,
    "lng": 8.5340,
    "services": ["ENT", "ear doctor", "sinus treatment", "hearing test"]
  },
  {
    "id": "prov_niederdorf_therapie",
    "name": "Niederdorf Therapie",
    "phone": "+15551000012",
    "address": "Niederdorfstrasse 88, 8001 Zürich",
    "rating": 4.7,
    "lat": 47.3735,
    "lng": 8.5425,
    "services": ["therapist", "mental health", "counseling", "anxiety treatment"]
  }
]
